{"type":"FeatureCollection","features":[{"type":"Feature","properties":{"OBJECTID":1,"NAME":"Academy for Precision Learning ","ADDRESS":"5031 University Way NE","PHONE":"206.427.0115","WEBSITE":"www.aplschool.org","GRADE":"K-12","CITY":"Seattle","ZIP":"98105-4341"},"geometry":{"type":"Point","coordinates":[-122.31368391792903,47.66567842087418]}},{"type":"Feature","properties":{"OBJECTID":2,"NAME":"Alcuin School","ADDRESS":"216 W Boston","PHONE":"206.286.0771","WEBSITE":"www.alcuinschool.com","GRADE":"P-1","CITY":"Seattle","ZIP":"98119-2641"},"geometry":{"type":"Point","coordinates":[-122.36049002774423,47.63856906907916]}},{"type":"Feature","properties":{"OBJECTID":3,"NAME":"Alfajer School","ADDRESS":"8430 Rainier Ave S","PHONE":"206.747.9036","WEBSITE":"N/A","GRADE":"K-12","CITY":"Seattle","ZIP":"98118-4655"},"geometry":{"type":"Point","coordinates":[-122.26965109526412,47.52702835764335]}},{"type":"Feature","properties":{"OBJECTID":4,"NAME":"Amazing Grace Christian School","ADDRESS":"10056 Renton Ave S","PHONE":"206.723.5526","WEBSITE":"www.agcschool.org","GRADE":"K-2","CITY":"Seattle","ZIP":"98178-2255"},"geometry":{"type":"Point","coordinates":[-122.25975656248733,47.51087088910749]}},{"type":"Feature","properties":{"OBJECTID":5,"NAME":"Assumption St. Bridget School","ADDRESS":"6220 32nd Ave NE","PHONE":"206.524.7452","WEBSITE":"www.asbschool.org","GRADE":"P-8","CITY":"Seattle","ZIP":"98115-7233"},"geometry":{"type":"Point","coordinates":[-122.29283895137874,47.674853239223104]}},{"type":"Feature","properties":{"OBJECTID":6,"NAME":"Bertschi School","ADDRESS":"2227 10th Ave E","PHONE":"206.324.5476","WEBSITE":"www.bertschi.org","GRADE":"P-5","CITY":"Seattle","ZIP":"98102-4177"},"geometry":{"type":"Point","coordinates":[-122.32034868465786,47.63931582214076]}},{"type":"Feature","properties":{"OBJECTID":7,"NAME":"Billings Middle School","ADDRESS":"7217 Woodlawn Ave NE","PHONE":"206.547.4614","WEBSITE":"www.billingsmiddleschool.org","GRADE":"6-8","CITY":"Seattle","ZIP":"98115-5335"},"geometry":{"type":"Point","coordinates":[-122.32512336547566,47.68085752818308]}},{"type":"Feature","properties":{"OBJECTID":8,"NAME":"Bishop Blanchet High School","ADDRESS":"8200 Wallingford Ave N","PHONE":"206.527.7701","WEBSITE":"www.bishopblanchet.org","GRADE":"9-12","CITY":"Seattle","ZIP":"98103-4599"},"geometry":{"type":"Point","coordinates":[-122.33552591462808,47.68891058115494]}},{"type":"Feature","properties":{"OBJECTID":9,"NAME":"Bright Water Waldorf School","ADDRESS":"1501 Tenth Ave E  Suite 100","PHONE":"206.624.6176","WEBSITE":"www.brightwaterwaldorf.org","GRADE":"P-8","CITY":"Seattle","ZIP":"98102-4256"},"geometry":{"type":"Point","coordinates":[-122.32072224510726,47.632387597915574]}},{"type":"Feature","properties":{"OBJECTID":10,"NAME":"Brightmont Academy--Seattle Campus","ADDRESS":"9750 3rd AVE NE","PHONE":"206.284.2300","WEBSITE":"www.brightmontacademy.com ","GRADE":"6-12","CITY":"Seattle","ZIP":"98115-2022"},"geometry":{"type":"Point","coordinates":[-122.32486574216821,47.700629743261224]}},{"type":"Feature","properties":{"OBJECTID":11,"NAME":"Christ the King School","ADDRESS":"415 N 117th St","PHONE":"206.859.5111","WEBSITE":"www.ckseattle.org","GRADE":"P-8","CITY":"Seattle","ZIP":"98133-8309"},"geometry":{"type":"Point","coordinates":[-122.35349994001089,47.71387447659572]}},{"type":"Feature","properties":{"OBJECTID":12,"NAME":"Concordia Lutheran School","ADDRESS":"7040 36th Ave NE","PHONE":"206.525.7407","WEBSITE":"www.concordiaseattle.com","GRADE":"P-8","CITY":"Seattle","ZIP":"98115-5966"},"geometry":{"type":"Point","coordinates":[-122.28904754260824,47.68072946726177]}},{"type":"Feature","properties":{"OBJECTID":13,"NAME":"Dartmoor School--Seattle","ADDRESS":"9618 Roosevelt Way NE","PHONE":"425.885.1123","WEBSITE":"www.dartmoorschool.org","GRADE":"1-12","CITY":"Seattle","ZIP":"98115-2236"},"geometry":{"type":"Point","coordinates":[-122.31722234324562,47.6991655834025]}},{"type":"Feature","properties":{"OBJECTID":14,"NAME":"Derech Emunah dba Seattle Jewish Girls High Schl","ADDRESS":"5142 S Holly St","PHONE":"206.790.1475","WEBSITE":"www.derechemunah.com","GRADE":"9-12","CITY":"Seattle","ZIP":"98118"},"geometry":{"type":"Point","coordinates":[-122.26803099468127,47.54309852764314]}},{"type":"Feature","properties":{"OBJECTID":15,"NAME":"Emerald City School","ADDRESS":"520 Denny Way ","PHONE":"206.209.0950","WEBSITE":"www.emeraldcityschool.com","GRADE":"3-12","CITY":"Seattle","ZIP":"98109-5003"},"geometry":{"type":"Point","coordinates":[-122.34671028859219,47.618786111553554]}},{"type":"Feature","properties":{"OBJECTID":16,"NAME":"Epiphany School","ADDRESS":"3611 E Denny Way","PHONE":"206.323.9011","WEBSITE":"www.epiphanyschool.org","GRADE":"P-5","CITY":"Seattle","ZIP":"98122-3423"},"geometry":{"type":"Point","coordinates":[-122.28675729931255,47.61806725375132]}},{"type":"Feature","properties":{"OBJECTID":17,"NAME":"Explorer West Middle School","ADDRESS":"10015 28th Ave SW","PHONE":"206.935.0495","WEBSITE":"www.explorerwest.org","GRADE":"6-8","CITY":"Seattle","ZIP":"98146-3708"},"geometry":{"type":"Point","coordinates":[-122.36932962101324,47.5132016525167]}},{"type":"Feature","properties":{"OBJECTID":18,"NAME":"Fairview Christian School","ADDRESS":"844 NE 78th St","PHONE":"206.526.0762","WEBSITE":"www.fcsseattle.org","GRADE":"P-8","CITY":"Seattle","ZIP":"98115-4202"},"geometry":{"type":"Point","coordinates":[-122.31849399680878,47.68566025113267]}},{"type":"Feature","properties":{"OBJECTID":19,"NAME":"Fusion Academy Seattle","ADDRESS":"214 E Galer St","PHONE":"616.301.1221","WEBSITE":"fusionacademy.com","GRADE":"6-12","CITY":"Seattle","ZIP":"98102-3716"},"geometry":{"type":"Point","coordinates":[-122.32528868516617,47.632454177801705]}},{"type":"Feature","properties":{"OBJECTID":20,"NAME":"Giddens School","ADDRESS":"620 20th Ave S","PHONE":"206.324.4847","WEBSITE":"www.giddensschool.org","GRADE":"P-5","CITY":"Seattle","ZIP":"98144-2209"},"geometry":{"type":"Point","coordinates":[-122.30601201522148,47.59691926319047]}},{"type":"Feature","properties":{"OBJECTID":21,"NAME":"Hamlin Robinson School","ADDRESS":"1701 20th Ave S","PHONE":"206.763.1167","WEBSITE":"www.hamlinrobinson.org","GRADE":"1-8","CITY":"Seattle","ZIP":"98144-4411"},"geometry":{"type":"Point","coordinates":[-122.30649623274135,47.588305639468146]}},{"type":"Feature","properties":{"OBJECTID":22,"NAME":"Holy Family Bilingual Catholic School","ADDRESS":"9615 20th Ave SW","PHONE":"206.767.6640","WEBSITE":"www.hfseattle.org/school","GRADE":"P-8","CITY":"Seattle","ZIP":"98106-2786"},"geometry":{"type":"Point","coordinates":[-122.35946395020162,47.51697570970973]}},{"type":"Feature","properties":{"OBJECTID":23,"NAME":"Holy Names Academy","ADDRESS":"728 21st Ave E","PHONE":"206.323.4272","WEBSITE":"www.holynames-sea.org","GRADE":"9-12","CITY":"Seattle","ZIP":"98112-4058"},"geometry":{"type":"Point","coordinates":[-122.30429422900215,47.62644390650857]}},{"type":"Feature","properties":{"OBJECTID":24,"NAME":"Holy Rosary Elementary","ADDRESS":"4142 42nd Ave SW","PHONE":"206.937.7255","WEBSITE":"www.holyrosaryws.org","GRADE":"P-8","CITY":"Seattle","ZIP":"98116-4202"},"geometry":{"type":"Point","coordinates":[-122.38501808273031,47.56542100325989]}},{"type":"Feature","properties":{"OBJECTID":25,"NAME":"Hope Academy","ADDRESS":"9421 18th Ave SW","PHONE":"206.438.1778","WEBSITE":"http://www.ourhope.us","GRADE":"P-6","CITY":"Seattle","ZIP":"98106-2717"},"geometry":{"type":"Point","coordinates":[-122.35824465469423,47.51856041148121]}},{"type":"Feature","properties":{"OBJECTID":26,"NAME":"Hope Lutheran School","ADDRESS":"4456 42nd Ave SW","PHONE":"206.935.8500","WEBSITE":"www.hopeseattle.org","GRADE":"P-8","CITY":"Seattle","ZIP":"98116-4223"},"geometry":{"type":"Point","coordinates":[-122.38508786314495,47.56341896544695]}},{"type":"Feature","properties":{"OBJECTID":27,"NAME":"Kapka Cooperative School","ADDRESS":"510 N 49th St","PHONE":"206.522.0350","WEBSITE":"www.kapkaschool.org","GRADE":"K-5","CITY":"Seattle","ZIP":"98103-6420"},"geometry":{"type":"Point","coordinates":[-122.35247908292037,47.66476037647414]}},{"type":"Feature","properties":{"OBJECTID":28,"NAME":"Kings Schools","ADDRESS":"19303 Fremont Ave N                      ","PHONE":"206.546.7211","WEBSITE":"www.kingsschools.org","GRADE":"P-12","CITY":"Seattle","ZIP":"98133-3800"},"geometry":{"type":"Point","coordinates":[-122.35205016200607,47.76951887819302]}},{"type":"Feature","properties":{"OBJECTID":29,"NAME":"Lake WA Girls Middle School","ADDRESS":"810 18th Ave","PHONE":"206.709.3800","WEBSITE":"www.lwgms.org","GRADE":"6-8","CITY":"Seattle","ZIP":"98122-4747"},"geometry":{"type":"Point","coordinates":[-122.30849893333712,47.60961851215237]}},{"type":"Feature","properties":{"OBJECTID":30,"NAME":"Lakeside School","ADDRESS":"14050 1st Ave NE","PHONE":"206.368.3600","WEBSITE":"www.lakesideschool.org","GRADE":"5-12","CITY":"Seattle","ZIP":"98125-3099"},"geometry":{"type":"Point","coordinates":[-122.3278432769468,47.73143062952464]}},{"type":"Feature","properties":{"OBJECTID":31,"NAME":"Laurel Academy","ADDRESS":"12700 35th Ave NE","PHONE":"206.522.5992","WEBSITE":"www.asaseattle.org","GRADE":"K-6","CITY":"Seattle","ZIP":"98125-4508"},"geometry":{"type":"Point","coordinates":[-122.29019701557068,47.72112467407688]}},{"type":"Feature","properties":{"OBJECTID":32,"NAME":"Matheia School","ADDRESS":"2205 NW 67th St","PHONE":"206.283.1828","WEBSITE":"www.matheia.org","GRADE":"P-5","CITY":"Seattle","ZIP":"98117-5737"},"geometry":{"type":"Point","coordinates":[-122.38474299614725,47.67745644145679]}},{"type":"Feature","properties":{"OBJECTID":33,"NAME":"Meridian School","ADDRESS":"4649 Sunnyside Ave N  Suite 242","PHONE":"206.632.7154","WEBSITE":"www.meridianschool.edu","GRADE":"K-5","CITY":"Seattle","ZIP":"98103-6955"},"geometry":{"type":"Point","coordinates":[-122.3311784743942,47.66410110263236]}},{"type":"Feature","properties":{"OBJECTID":34,"NAME":"MMSC Day School","ADDRESS":"8420 Dayton Ave N","PHONE":"206.523.9766","WEBSITE":"www.mmscdayschool.org","GRADE":"P-12","CITY":"Seattle","ZIP":"98103-4249"},"geometry":{"type":"Point","coordinates":[-122.35228472341657,47.690482739464706]}},{"type":"Feature","properties":{"OBJECTID":35,"NAME":"Morningside Academy","ADDRESS":"901 Lenora St","PHONE":"206.709.9500","WEBSITE":"www.morningsideacademy.org","GRADE":"1-9","CITY":"Seattle","ZIP":"98121-2714"},"geometry":{"type":"Point","coordinates":[-122.33654449592215,47.61717703362714]}},{"type":"Feature","properties":{"OBJECTID":36,"NAME":"North Seattle French School","ADDRESS":"12351 8th Ave NE","PHONE":"206.365.1034","WEBSITE":"www.northseattlefrenchschool.com","GRADE":"P-5","CITY":"Seattle","ZIP":"98125-4805"},"geometry":{"type":"Point","coordinates":[-122.32171104611315,47.71922562288704]}},{"type":"Feature","properties":{"OBJECTID":37,"NAME":"Northwest Montessori","ADDRESS":"4910 Phinney Ave N","PHONE":"206.524.4244","WEBSITE":"www.northwestmontessori.org","GRADE":"P-6","CITY":"Seattle","ZIP":"98103-6347"},"geometry":{"type":"Point","coordinates":[-122.35356919878193,47.664806671492684]}},{"type":"Feature","properties":{"OBJECTID":38,"NAME":"Northwest School","ADDRESS":"1415 Summit Ave","PHONE":"206.682.7309","WEBSITE":"www.northwestschool.org","GRADE":"6-12","CITY":"Seattle","ZIP":"98122-3619"},"geometry":{"type":"Point","coordinates":[-122.32594232825691,47.61339106805996]}},{"type":"Feature","properties":{"OBJECTID":39,"NAME":"O'Dea High School","ADDRESS":"802 Terry Ave","PHONE":"206.622.6596","WEBSITE":"www.odea.org","GRADE":"9-12","CITY":"Seattle","ZIP":"98104-1294"},"geometry":{"type":"Point","coordinates":[-122.32481339791809,47.607756351825294]}},{"type":"Feature","properties":{"OBJECTID":40,"NAME":"Our Lady of Fatima School","ADDRESS":"3301 W Dravus St","PHONE":"206.283.7031","WEBSITE":"www.school.olfatima.org","GRADE":"P-8","CITY":"Seattle","ZIP":"98199-2624"},"geometry":{"type":"Point","coordinates":[-122.39976574241228,47.647246679419126]}},{"type":"Feature","properties":{"OBJECTID":41,"NAME":"Our Lady of Guadalupe School","ADDRESS":"3401 SW Myrtle St","PHONE":"206.935.0651","WEBSITE":"guadalupe-school.org","GRADE":"P-8","CITY":"Seattle","ZIP":"98126-3399"},"geometry":{"type":"Point","coordinates":[-122.37563684304811,47.538873056917474]}},{"type":"Feature","properties":{"OBJECTID":42,"NAME":"Our Lady Of The Lake School","ADDRESS":"3520 NE 89th St","PHONE":"206.525.9980","WEBSITE":"www.ollseattle.org","GRADE":"P-8","CITY":"Seattle","ZIP":"98115-3648"},"geometry":{"type":"Point","coordinates":[-122.28935521830942,47.693535374067956]}},{"type":"Feature","properties":{"OBJECTID":43,"NAME":"Pacific Crest Schools","ADDRESS":"600 NW Bright St","PHONE":"206.789.7889","WEBSITE":"www.pacificcrest.org","GRADE":"P-8","CITY":"Seattle","ZIP":"98107-4451"},"geometry":{"type":"Point","coordinates":[-122.36416921976925,47.66023160800125]}},{"type":"Feature","properties":{"OBJECTID":44,"NAME":"Perkins School","ADDRESS":"9005 Roosevelt Way NE","PHONE":"206.526.8217","WEBSITE":"www.perkinsschool.com","GRADE":"K-5","CITY":"Seattle","ZIP":"98115-3030"},"geometry":{"type":"Point","coordinates":[-122.31806523472136,47.6942198585409]}},{"type":"Feature","properties":{"OBJECTID":45,"NAME":"Puget Sound Community School","ADDRESS":"660 S Dearborn St","PHONE":"206.324.4350","WEBSITE":"www.pscs.org","GRADE":"6-12","CITY":"Seattle","ZIP":"98134-1328"},"geometry":{"type":"Point","coordinates":[-122.324268587972,47.596288764191826]}},{"type":"Feature","properties":{"OBJECTID":46,"NAME":"Seattle Academy of Arts/Sciences","ADDRESS":"1201 E Union St","PHONE":"206.323.6600","WEBSITE":"www.seattleacademy.org","GRADE":"6-12","CITY":"Seattle","ZIP":"98122-3925"},"geometry":{"type":"Point","coordinates":[-122.31629868459046,47.61265937634223]}},{"type":"Feature","properties":{"OBJECTID":47,"NAME":"Seattle Amistad School","ADDRESS":"1625 19th Ave","PHONE":"206.330.6373","WEBSITE":"seattleamistadschool.org","GRADE":"P-5","CITY":"Seattle","ZIP":"98122-2848"},"geometry":{"type":"Point","coordinates":[-122.30769518494192,47.6159808138512]}},{"type":"Feature","properties":{"OBJECTID":48,"NAME":"Seattle Area German American School","ADDRESS":"11010 Greenwood Ave N","PHONE":"206.442.2023","WEBSITE":"www.sagaschool.org","GRADE":"P-5","CITY":"Seattle","ZIP":"98133-8739"},"geometry":{"type":"Point","coordinates":[-122.3549754532126,47.709012559947844]}},{"type":"Feature","properties":{"OBJECTID":49,"NAME":"Seattle Classical Christian School","ADDRESS":"172 20th Ave","PHONE":"206.259.5831","WEBSITE":"www.seattleclassicalchristianschool.org","GRADE":"P-6","CITY":"Seattle","ZIP":"98122-5862"},"geometry":{"type":"Point","coordinates":[-122.30595623462023,47.60320134527408]}},{"type":"Feature","properties":{"OBJECTID":50,"NAME":"Seattle Country Day School","ADDRESS":"2619 4th Ave N","PHONE":"206.284.6220","WEBSITE":"www.seattlecountryday.org","GRADE":"K-8","CITY":"Seattle","ZIP":"98109-1903"},"geometry":{"type":"Point","coordinates":[-122.35089961621688,47.64344068649123]}},{"type":"Feature","properties":{"OBJECTID":51,"NAME":"Seattle Girls School","ADDRESS":"2706 S Jackson St ","PHONE":"206.709.2228","WEBSITE":"www.seattlegirlsschool.org","GRADE":"5-8","CITY":"Seattle","ZIP":"98144-2442"},"geometry":{"type":"Point","coordinates":[-122.29691214020114,47.59949201795404]}},{"type":"Feature","properties":{"OBJECTID":52,"NAME":"Seattle Hebrew Academy","ADDRESS":"1617 Interlaken Dr E","PHONE":"206.323.5750","WEBSITE":"www.seattlehebrewacademy.org","GRADE":"P-8","CITY":"Seattle","ZIP":"98112-3499"},"geometry":{"type":"Point","coordinates":[-122.30792638481594,47.63442242581147]}},{"type":"Feature","properties":{"OBJECTID":53,"NAME":"Seattle Jewish Community School","ADDRESS":"12351 8th Ave NE","PHONE":"206.522.5212","WEBSITE":"www.sjcs.net","GRADE":"K-5","CITY":"Seattle","ZIP":"98125-4805"},"geometry":{"type":"Point","coordinates":[-122.32171104611315,47.71922562288704]}},{"type":"Feature","properties":{"OBJECTID":54,"NAME":"Seattle Lutheran High School","ADDRESS":"4100 SW Genesee St","PHONE":"206.937.7722","WEBSITE":"www.seattlelutheran.org","GRADE":"9-12","CITY":"Seattle","ZIP":"98116-4216"},"geometry":{"type":"Point","coordinates":[-122.38454732611783,47.56503750317679]}},{"type":"Feature","properties":{"OBJECTID":55,"NAME":"Seattle Nativity School","ADDRESS":"2800 S Massachusetts St","PHONE":"206.494.4708","WEBSITE":"www.seattlenativity.org","GRADE":"6-8","CITY":"Seattle","ZIP":"98144-3870"},"geometry":{"type":"Point","coordinates":[-122.29647557924413,47.58880002199481]}},{"type":"Feature","properties":{"OBJECTID":56,"NAME":"Seattle Preparatory School","ADDRESS":"2400 11th Ave E","PHONE":"206.577.2105","WEBSITE":"www.seaprep.org","GRADE":"9-12","CITY":"Seattle","ZIP":"98102-4016"},"geometry":{"type":"Point","coordinates":[-122.31643691376499,47.64132161570092]}},{"type":"Feature","properties":{"OBJECTID":57,"NAME":"Seattle Urban Academy","ADDRESS":"3800 S Othello St","PHONE":"206.723.0333","WEBSITE":"www.seattleurbanacademy.org","GRADE":"9-12","CITY":"Seattle","ZIP":"98118-3562"},"geometry":{"type":"Point","coordinates":[-122.28405605653101,47.538267693980366]}},{"type":"Feature","properties":{"OBJECTID":58,"NAME":"Seattle Waldorf School","ADDRESS":"2728 NE 100th St","PHONE":"206.524.5320","WEBSITE":"www.seattlewaldorf.org","GRADE":"P-12","CITY":"Seattle","ZIP":"98125-7712"},"geometry":{"type":"Point","coordinates":[-122.29732953391616,47.701580758355476]}},{"type":"Feature","properties":{"OBJECTID":59,"NAME":"Shoreline Christian School","ADDRESS":"2400 NE 147th St","PHONE":"206.364.7777","WEBSITE":"www.shorelinechristian.org","GRADE":"P-12","CITY":"Seattle","ZIP":"98155-7395"},"geometry":{"type":"Point","coordinates":[-122.30305466178568,47.736410986016665]}},{"type":"Feature","properties":{"OBJECTID":60,"NAME":"Sound View Education ","ADDRESS":"9205 3rd Ave SW","PHONE":"206.214.1011","WEBSITE":"sterlinged.org","GRADE":"3-12","CITY":"Seattle","ZIP":"98106-3106"},"geometry":{"type":"Point","coordinates":[-122.33911411896858,47.520655718242004]}},{"type":"Feature","properties":{"OBJECTID":61,"NAME":"Spring Academy","ADDRESS":"9725 3rd Ave NE","PHONE":"206.363.3600","WEBSITE":"www.springacademy.com","GRADE":"6-12","CITY":"Seattle","ZIP":"98125-6111"},"geometry":{"type":"Point","coordinates":[-122.32662611631437,47.699993599569744]}},{"type":"Feature","properties":{"OBJECTID":62,"NAME":"Spruce Street School","ADDRESS":"914 Virginia St","PHONE":"206.621.9211","WEBSITE":"www.sprucestreetschool.org","GRADE":"K-5","CITY":"Seattle","ZIP":"98101-1426"},"geometry":{"type":"Point","coordinates":[-122.33533240514731,47.616873192722224]}},{"type":"Feature","properties":{"OBJECTID":63,"NAME":"St. Alphonsus School","ADDRESS":"5816 15th Ave NW","PHONE":"206.782.4363","WEBSITE":"www.stalseattle.org","GRADE":"P-8","CITY":"Seattle","ZIP":"98107-3096"},"geometry":{"type":"Point","coordinates":[-122.37568393059986,47.67119860740327]}},{"type":"Feature","properties":{"OBJECTID":64,"NAME":"St. Anne School","ADDRESS":"101 W Lee St","PHONE":"206.282.3538","WEBSITE":"www.stannesea.org","GRADE":"P-8","CITY":"Seattle","ZIP":"98119-3321"},"geometry":{"type":"Point","coordinates":[-122.35813769349957,47.63110511072518]}},{"type":"Feature","properties":{"OBJECTID":65,"NAME":"St. Benedict School","ADDRESS":"4811 Wallingford Ave N","PHONE":"206.633.3375","WEBSITE":"www.stbens.net","GRADE":"P-8","CITY":"Seattle","ZIP":"98103-6899"},"geometry":{"type":"Point","coordinates":[-122.33676626420856,47.66380094107297]}},{"type":"Feature","properties":{"OBJECTID":66,"NAME":"St. Bernadette School","ADDRESS":"1028 SW 128th St","PHONE":"206.244.4934","WEBSITE":"www.stbernadettesea.org","GRADE":"P-8","CITY":"Seattle","ZIP":"98146-3198"},"geometry":{"type":"Point","coordinates":[-122.34845311677812,47.48958566805934]}},{"type":"Feature","properties":{"OBJECTID":67,"NAME":"St. Catherine School","ADDRESS":"8524 8th Ave NE","PHONE":"206.525.0581","WEBSITE":"www.stcatherineschool.net","GRADE":"P-8","CITY":"Seattle","ZIP":"98115-3099"},"geometry":{"type":"Point","coordinates":[-122.32011433948743,47.69112059172439]}},{"type":"Feature","properties":{"OBJECTID":68,"NAME":"St. Edwards School","ADDRESS":"4200 S Mead St","PHONE":"206.725.1774","WEBSITE":"www.saintedwardseattle.org","GRADE":"P-8","CITY":"Seattle","ZIP":"98118-2795"},"geometry":{"type":"Point","coordinates":[-122.27991364793452,47.55063310002565]}},{"type":"Feature","properties":{"OBJECTID":69,"NAME":"St. George School","ADDRESS":"5117 13th Ave S","PHONE":"206.762.0656","WEBSITE":"www.saintgeorgeseattle.org","GRADE":"P-8","CITY":"Seattle","ZIP":"98108-2309"},"geometry":{"type":"Point","coordinates":[-122.3164114132811,47.55586612276398]}},{"type":"Feature","properties":{"OBJECTID":70,"NAME":"St. John School","ADDRESS":"120 N 79th St","PHONE":"206.783.0337","WEBSITE":"www.st-johnschool.org","GRADE":"P-8","CITY":"Seattle","ZIP":"98103-4688"},"geometry":{"type":"Point","coordinates":[-122.35763455572051,47.686394139017374]}},{"type":"Feature","properties":{"OBJECTID":71,"NAME":"St. Joseph School","ADDRESS":"700 18th Ave E","PHONE":"206.329.3260","WEBSITE":"www.stjosephsea.org","GRADE":"K-8","CITY":"Seattle","ZIP":"98112-3900"},"geometry":{"type":"Point","coordinates":[-122.30827667649191,47.625478179091]}},{"type":"Feature","properties":{"OBJECTID":72,"NAME":"St. Matthew School","ADDRESS":"1230 NE 127th St","PHONE":"206.362.2785","WEBSITE":"www.stmattschool.org","GRADE":"P-8","CITY":"Seattle","ZIP":"98125-4021"},"geometry":{"type":"Point","coordinates":[-122.31392479805538,47.721545413776724]}},{"type":"Feature","properties":{"OBJECTID":73,"NAME":"St. Paul School","ADDRESS":"10001 57th Ave S","PHONE":"206.725.0780","WEBSITE":"www.seattlestpaul.org","GRADE":"P-8","CITY":"Seattle","ZIP":"98178-2299"},"geometry":{"type":"Point","coordinates":[-122.2627656304843,47.51042025650013]}},{"type":"Feature","properties":{"OBJECTID":74,"NAME":"St. Therese Catholic Academy","ADDRESS":"900 35th Ave","PHONE":"206.324.0460","WEBSITE":"www.stcaseattle.org","GRADE":"P-8","CITY":"Seattle","ZIP":"98122-5299"},"geometry":{"type":"Point","coordinates":[-122.28800275484933,47.6111841946055]}},{"type":"Feature","properties":{"OBJECTID":75,"NAME":"Taproot School","ADDRESS":"9131 California Ave SW","PHONE":"206.849.7146","WEBSITE":"www.taprootschool.org","GRADE":"K-5","CITY":"Seattle","ZIP":"98136-2551"},"geometry":{"type":"Point","coordinates":[-122.38787410182562,47.521904410791606]}},{"type":"Feature","properties":{"OBJECTID":76,"NAME":"The Bush School","ADDRESS":"3400 E Harrison St","PHONE":"206.322.7978","WEBSITE":"www.bush.edu","GRADE":"K-12","CITY":"Seattle","ZIP":"98112-4268"},"geometry":{"type":"Point","coordinates":[-122.28879287734489,47.62290728353552]}},{"type":"Feature","properties":{"OBJECTID":77,"NAME":"The Lake and Park School","ADDRESS":"3201 Hunter Blvd S","PHONE":"206.721.3480","WEBSITE":"www.lakeandpark.org","GRADE":"P-5","CITY":"Seattle","ZIP":"98144-7029"},"geometry":{"type":"Point","coordinates":[-122.28536135620857,47.5749865285652]}},{"type":"Feature","properties":{"OBJECTID":78,"NAME":"The Polytech","ADDRESS":"540 NE Northgate Way","PHONE":"206.227.5785","WEBSITE":"www.thepolytech.com","GRADE":"11-12","CITY":"Seattle","ZIP":"98125-6154"},"geometry":{"type":"Point","coordinates":[-122.32156580968393,47.70882008570068]}},{"type":"Feature","properties":{"OBJECTID":79,"NAME":"The Valley School","ADDRESS":"318 30th Ave E","PHONE":"206.328.4475","WEBSITE":"www.thevalleyschool.org","GRADE":"P-5","CITY":"Seattle","ZIP":"98112-4819"},"geometry":{"type":"Point","coordinates":[-122.29295439885801,47.621896728460264]}},{"type":"Feature","properties":{"OBJECTID":80,"NAME":"Tilden School","ADDRESS":"4105 California Ave SW","PHONE":"206.938.4628","WEBSITE":"www.tildenschool.org","GRADE":"K-5","CITY":"Seattle","ZIP":"98116-4101"},"geometry":{"type":"Point","coordinates":[-122.38719025234614,47.56614858871762]}},{"type":"Feature","properties":{"OBJECTID":81,"NAME":"Torah Academy of the Pacific Northwest","ADDRESS":"1625 S Columbian Way","PHONE":"818.822.4961","WEBSITE":"N/A","GRADE":"9-12","CITY":"Seattle","ZIP":"98108-1633"},"geometry":{"type":"Point","coordinates":[-122.31217720650976,47.562244535088986]}},{"type":"Feature","properties":{"OBJECTID":82,"NAME":"Torah Day School of Seattle","ADDRESS":"1625 S Columbian Way","PHONE":"206.722.1200","WEBSITE":"www.tdsseattle.org","GRADE":"P-12","CITY":"Seattle","ZIP":"98108-4634"},"geometry":{"type":"Point","coordinates":[-122.31217720650976,47.562244535088986]}},{"type":"Feature","properties":{"OBJECTID":83,"NAME":"University Child Development School","ADDRESS":"5062 9th Ave NE","PHONE":"206.547.8237","WEBSITE":"www.ucds.org","GRADE":"P-5","CITY":"Seattle","ZIP":"98105-3605"},"geometry":{"type":"Point","coordinates":[-122.31817801500667,47.666648592764076]}},{"type":"Feature","properties":{"OBJECTID":84,"NAME":"University Cooperative School","ADDRESS":"5601 University Way NE","PHONE":"206.524.0653","WEBSITE":"www.ucoopschool.org","GRADE":"K-5","CITY":"Seattle","ZIP":"98105-2619"},"geometry":{"type":"Point","coordinates":[-122.31336034427008,47.66965404209727]}},{"type":"Feature","properties":{"OBJECTID":85,"NAME":"University Preparatory","ADDRESS":"8000 25th Ave NE","PHONE":"206.525.2714","WEBSITE":"www.universityprep.org","GRADE":"6-12","CITY":"Seattle","ZIP":"98115-4600"},"geometry":{"type":"Point","coordinates":[-122.30013291217121,47.68699883587992]}},{"type":"Feature","properties":{"OBJECTID":86,"NAME":"Villa Academy","ADDRESS":"5001 NE 50th St","PHONE":"206.524.8885","WEBSITE":"www.thevilla.org","GRADE":"P-8","CITY":"Seattle","ZIP":"98105-2899"},"geometry":{"type":"Point","coordinates":[-122.2734098368003,47.663642321660596]}},{"type":"Feature","properties":{"OBJECTID":87,"NAME":"Westside School","ADDRESS":"10404 34th Ave SW","PHONE":"206.932.2511","WEBSITE":"www.westsideschool.org","GRADE":"P-8","CITY":"Seattle","ZIP":"98146-1270"},"geometry":{"type":"Point","coordinates":[-122.37395194548648,47.509592617527424]}},{"type":"Feature","properties":{"OBJECTID":88,"NAME":"Washington Academy of Muslim Education","ADDRESS":"4272 S Mead St","PHONE":"360.842.6263","WEBSITE":"https://www.wamek12.org/","GRADE":"K-12","CITY":"Seattle ","ZIP":"98118-2702"},"geometry":{"type":"Point","coordinates":[-122.27763758714156,47.550541977581155]}},{"type":"Feature","properties":{"OBJECTID":89,"NAME":"Seattle Waldorf High School","ADDRESS":"7400 Sand Point Way NE","PHONE":"206.999.9999","WEBSITE":"www.seattlewaldorf.org","GRADE":"9-12","CITY":"Seattle","ZIP":"98115-8186"},"geometry":{"type":"Point","coordinates":[-122.26486415445801,47.6874321773426]}}]}